[
  {
    "Name": "Riahi Sami",
    "Phone": "98154224",
    "Localite": "Mejez El Bab",
    "Adress": "Avenue Habib Bourguiba Béja",
    "Latitude": 36.64824,
    "Longitude": 9.613442
  },
  {
    "Name": "Imen Slimani 1",
    "Phone": "53510031",
    "Localite": "Mateur",
    "Adress": "68 Route Tbarka Cité Mostakbel Mateur",
    "Latitude": 37.043001,
    "Longitude": 9.656241
  },
  {
    "Name": "Jalel Maalaoui",
    "Phone": "92208112",
    "Localite": "Sejnane",
    "Adress": "Avenue Hsan Nouri Sajnan",
    "Latitude": 37.058989,
    "Longitude": 9.239073
  },
  {
    "Name": "Nabil Youssef 2",
    "Phone": "98202210",
    "Localite": "Menzel Bourguiba",
    "Adress": "Avenue de l'indépendance",
    "Latitude": 37.156542,
    "Longitude": 9.786458
  },
  {
    "Name": "Agence El Hamma",
    "Phone": "70223388",
    "Localite": "El Hamma",
    "Adress": "Avenue de l'environnement El Hamma",
    "Latitude": 33.88761686,
    "Longitude": 9.79625
  },
  {
    "Name": "Agence Gabes Centre - Bab Bhar",
    "Phone": "70223388",
    "Localite": "Gabes",
    "Adress": "Beb Bhar Gabes Centre",
    "Latitude": 33.88693812,
    "Longitude": 10.10278414
  },
  {
    "Name": "Adel Salah",
    "Phone": "55111121",
    "Localite": "Jebel Mdhilla",
    "Adress": "Mdhilla",
    "Latitude": 34.428561,
    "Longitude": 8.782557
  },
  {
    "Name": "Oubeidallah Triki",
    "Phone": "50018377",
    "Localite": "Tabarka",
    "Adress": "Rue Mohamed Ali Tabarka",
    "Latitude": 36.953525,
    "Longitude": 8.768013
  },
  {
    "Name": "Bilel Mrabet",
    "Phone": "29404073",
    "Localite": "El Ala",
    "Adress": "El Alaa",
    "Latitude": 35.657354,
    "Longitude": 9.419433
  },
  {
    "Name": "Wrida Ben Aballah",
    "Phone": "20781414",
    "Localite": "Rejime Maatoug",
    "Adress": "Orange place souk el faouar",
    "Latitude": 33.355784,
    "Longitude": 8.676697
  },
  {
    "Name": "Khamessi Samia Malek",
    "Phone": "50488159",
    "Localite": "El Ksour",
    "Adress": "Rue Mohamed Jeddi",
    "Latitude": 35.894135,
    "Longitude": 8.84792
  },
  {
    "Name": "Seif eddine messaoud",
    "Phone": "50202013",
    "Localite": "Chiba",
    "Adress": "Avenus Ali Belhouane 5100",
    "Latitude": 35.505172,
    "Longitude": 11.048847
  },
  {
    "Name": "Agence Souassi - Avenue de la liberté",
    "Phone": "70223388",
    "Localite": "Sidi Zid",
    "Adress": "Avenue de la liberté Souassi - Mahdia",
    "Latitude": 35.344853,
    "Longitude": 10.549977
  },
  {
    "Name": "Agence Douar Hicher",
    "Phone": "70223388",
    "Localite": "Douar Hicher",
    "Adress": "Rue de martyrs à côté de monoprix daouar hicher Mannouba",
    "Latitude": 36.825334,
    "Longitude": 10.096412
  },
  {
    "Name": "Agence Ben Guerdene",
    "Phone": "70223388",
    "Localite": "Ben Guerdane",
    "Adress": "Avenue des Martyrs, Ben Guerden 4160",
    "Latitude": 33.13792596,
    "Longitude": 11.21988551
  },
  {
    "Name": "Othmani Safa",
    "Phone": "21900076",
    "Localite": "Jabira",
    "Adress": "route houmet souk ajim Djerba",
    "Latitude": 33.726146,
    "Longitude": 10.747501
  },
  {
    "Name": "Addali Nabil 2",
    "Phone": "58664250",
    "Localite": "Midoun",
    "Adress": "Route Gabes km 0,5 Medenine en face port",
    "Latitude": 33.350389,
    "Longitude": 10.485711
  },
  {
    "Name": "Dhekra Trabelsi",
    "Phone": "26888088",
    "Localite": "Beni Khalled",
    "Adress": "Rue Mahmoud Belhssan Beni Khaled",
    "Latitude": 36.64906,
    "Longitude": 10.590376
  },
  {
    "Name": "Hamdi Kochtane",
    "Phone": "24043000",
    "Localite": "Korba",
    "Adress": "Avenue Farhat Hached Korba",
    "Latitude": 36.5802975,
    "Longitude": 10.8594526
  },
  {
    "Name": "Tarek Messaoudi",
    "Phone": "20857837",
    "Localite": "Kerkennah",
    "Adress": "Ramla Kerkennah",
    "Latitude": 34.706802,
    "Longitude": 11.204228
  },
  {
    "Name": "Fathi Lahmer",
    "Phone": "26648624",
    "Localite": "El Hachana",
    "Adress": "Avenue Habib Bourguiba",
    "Latitude": 35.124056,
    "Longitude": 10.740766
  },
  {
    "Name": "El Abdi Youssef 2",
    "Phone": "24464130",
    "Localite": "El Amra",
    "Adress": "Route Saltnia Aouebed Sfax",
    "Latitude": 34.872782,
    "Longitude": 10.896623
  },
  {
    "Name": "Ben Ali Faouzi",
    "Phone": "53464164",
    "Localite": "Bir Ali Ben Khelifa",
    "Adress": "Rue Ali Balahwan Bir Ali",
    "Latitude": 34.734728,
    "Longitude": 10.092765
  },
  {
    "Name": "Asmallah Boussif",
    "Phone": "21433330",
    "Localite": "Bir Amema",
    "Adress": "avenue habib bourguiba Sidi Ali Ben Aoun",
    "Latitude": 34.853866,
    "Longitude": 9.144924
  },
  {
    "Name": "Lotfi Rgaieg 2",
    "Phone": "22017700",
    "Localite": "Regueb",
    "Adress": "Rue Imem Sahnoun Regueb",
    "Latitude": 34.858881,
    "Longitude": 9.787105
  },
  {
    "Name": "IZI Express Sidi Bouzid",
    "Phone": "70223388",
    "Localite": "Sidi Bouzid",
    "Adress": "MG, Sidi Bouzid Bd.Mohamed Bouazizi",
    "Latitude": 35.03661092,
    "Longitude": 9.481903718
  },
  {
    "Name": "Barhoui Moufida",
    "Phone": "98954315",
    "Localite": "Cebbala",
    "Adress": "Avenue 14 Janvier cebbala Ouled Asker",
    "Latitude": 35.177321,
    "Longitude": 9.280095
  },
  {
    "Name": "Felhi Imed",
    "Phone": "98708417",
    "Localite": "Maknassy",
    "Adress": "avenue habib bourguiba Meknassi",
    "Latitude": 34.605579,
    "Longitude": 9.606808
  },
  {
    "Name": "Lotfi Rgaieg 1",
    "Phone": "22017700",
    "Localite": "Fayedh",
    "Adress": "23 rue farhat hached Sidi Bouzid",
    "Latitude": 35.038186,
    "Longitude": 9.48957
  },
  {
    "Name": "Moufida Othmeni 1",
    "Phone": "98465301",
    "Localite": "Makthar",
    "Adress": "avenue Ali Belhouane Makther",
    "Latitude": 35.85884,
    "Longitude": 9.202925
  },
  {
    "Name": "Immami Cherifa",
    "Phone": "99686329",
    "Localite": "Tameghza",
    "Adress": "avenue 14 janvier Tamaghza Tozeur",
    "Latitude": 34.386115,
    "Longitude": 7.931868
  }
]
